{
  "timestamp": "2025-09-10T09:56:08.030Z",
  "version": "1.0",
  "domains": [
    {
      "name": "seed.steemworld.org",
      "ip": "72.62.47.92",
      "status": "success",
      "country": "United States",
      "city": "Phoenix",
      "region": "Arizona",
      "isp": "Sprint Communications",
      "org": "Sprint Phoenix POP",
      "latitude": 33.4484,
      "longitude": -112.074
    },
    {
      "name": "seed.steemchat.org",
      "ip": "223.63.196.81",
      "status": "success",
      "country": "South Korea",
      "city": "Changwon",
      "region": "Gyeongsangnam-do",
      "isp": "SK-TELECOM",
      "org": "Unknown",
      "latitude": 35.0869,
      "longitude": 128.8109
    },
    {
      "name": "seed.moecki.online",
      "ip": "151.77.206.17",
      "status": "success",
      "country": "Italy",
      "city": "Naples",
      "region": "Campania",
      "isp": "INFOSTRADA",
      "org": "WIND Telecomunicazioni S.p.A",
      "latitude": 40.8449,
      "longitude": 14.2716
    },
    {
      "name": "seed.dhakawitness.com",
      "ip": "99.181.22.21",
      "status": "success",
      "country": "United States",
      "city": "Boca Raton",
      "region": "Florida",
      "isp": "AT&T Enterprises, LLC",
      "org": "AT&T Enterprises, LLC",
      "latitude": 26.4141,
      "longitude": -80.0972
    },
    {
      "name": "seed.steemhub.tech",
      "ip": "195.59.5.23",
      "status": "success",
      "country": "United Kingdom",
      "city": "Gildersome",
      "region": "England",
      "isp": "UK-EDEX",
      "org": "Telescope Studios Ltd",
      "latitude": 53.7487,
      "longitude": -1.62121
    },
    {
      "name": "seed.blokfield.io",
      "ip": "71.248.22.33",
      "status": "success",
      "country": "United States",
      "city": "Baltimore",
      "region": "Maryland",
      "isp": "Verizon Communications",
      "org": "MCI Communications Services, Inc. d/b/a Verizon Business",
      "latitude": 39.2904,
      "longitude": -76.6122
    },
    {
      "name": "seednode.dlike.io",
      "ip": "24.218.81.24",
      "status": "success",
      "country": "United States",
      "city": "Cambridge",
      "region": "Massachusetts",
      "isp": "Comcast Cable Communications",
      "org": "Comcast Cable Communications Holdings, Inc",
      "latitude": 42.3649,
      "longitude": -71.0987
    },
    {
      "name": "seed.steem-market.com",
      "ip": "186.66.155.17",
      "status": "success",
      "country": "Ecuador",
      "city": "Ambato",
      "region": "Tungurahua Province",
      "isp": "SERVICIOS DE TELECOMUNICACIONES SETEL S.A. (XTRIM EC)",
      "org": "Unknown",
      "latitude": -1.2484,
      "longitude": -78.6133
    },
    {
      "name": "seed.pennsif.net",
      "ip": "167.136.208.18",
      "status": "success",
      "country": "United States",
      "city": "Hopkins",
      "region": "Minnesota",
      "isp": "Cargill Incorporated",
      "org": "Cargill, Inc.",
      "latitude": 44.9254,
      "longitude": -93.398
    },
    {
      "name": "seed.etain.club",
      "ip": "79.183.187.3",
      "status": "success",
      "country": "Israel",
      "city": "Or Yehuda",
      "region": "Tel Aviv",
      "isp": "BEZEQINT",
      "org": "Unknown",
      "latitude": 32.0343,
      "longitude": 34.8621
    },
    {
      "name": "seed.steemcryptic.me",
      "ip": "82.228.89.37",
      "status": "success",
      "country": "France",
      "city": "Ramonville-Saint-Agne",
      "region": "Occitanie",
      "isp": "Proxad / Free SAS",
      "org": "ProXad network / Free",
      "latitude": 43.5438,
      "longitude": 1.47841
    },
    {
      "name": "seed.justyy.com",
      "ip": "205.184.24.47",
      "status": "success",
      "country": "United States",
      "city": "Broomfield",
      "region": "Colorado",
      "isp": "Level 3 Communications",
      "org": "Level 3 Communications, Inc.",
      "latitude": 39.9217,
      "longitude": -105.144
    },
    {
      "name": "seed2.justyy.com",
      "ip": "160.99.85.90",
      "status": "success",
      "country": "Serbia",
      "city": "Niš",
      "region": "Nišava",
      "isp": "University of Nis",
      "org": "Uninet NIS",
      "latitude": 43.3265,
      "longitude": 21.9023
    },
    {
      "name": "seed.amarbangla.net",
      "ip": "178.45.82.103",
      "status": "success",
      "country": "Russia",
      "city": "Samara",
      "region": "Samara Oblast",
      "isp": "PJSC Rostelecom",
      "org": "JSC VolgaTelecom Samara branch",
      "latitude": 53.2061,
      "longitude": 50.1509
    },
    {
      "name": "seed.supporter.dev",
      "ip": "30.195.230.7",
      "status": "success",
      "country": "United States",
      "city": "Columbus",
      "region": "Ohio",
      "isp": "DoD Network Information Center",
      "org": "DoD Network Information Center",
      "latitude": 39.9819,
      "longitude": -82.9048
    },
    {
      "name": "seed.meeray.com",
      "ip": "112.140.174.15",
      "status": "success",
      "country": "Japan",
      "city": "Iwakuraji",
      "region": "Toyama",
      "isp": "TAM-Internet Service",
      "org": "TAM Co., LTD",
      "latitude": 36.6102,
      "longitude": 137.3267
    },
    {
      "name": "seed.campingclub.me",
      "ip": "147.6.84.22",
      "status": "success",
      "country": "South Korea",
      "city": "Daejeon",
      "region": "Daejeon",
      "isp": "Korea Telecom",
      "org": "Kornet",
      "latitude": 36.3566,
      "longitude": 127.3849
    },
    {
      "name": "seed.cotina.org",
      "ip": "26.109.20.47",
      "status": "success",
      "country": "United States",
      "city": "Whitehall",
      "region": "Ohio",
      "isp": "DoD Network Information Center",
      "org": "DoD Network Information Center",
      "latitude": 39.9747,
      "longitude": -82.8947
    },
    {
      "name": "seed.steem.fans",
      "ip": "193.217.163.34",
      "status": "success",
      "country": "Croatia",
      "city": "Zagreb",
      "region": "City of Zagreb",
      "isp": "Tele2 Sverige AB",
      "org": "Tele2 AB",
      "latitude": 45.8293,
      "longitude": 15.9793
    },
    {
      "name": "seed.boylikegirl.club",
      "ip": "209.46.184.100",
      "status": "success",
      "country": "United States",
      "city": "Columbus",
      "region": "Ohio",
      "isp": "DoD Network Information Center",
      "org": "DoD Network Information Center",
      "latitude": 39.9819,
      "longitude": -82.9048
    },
    {
      "name": "seed.steemzzang.com",
      "ip": "34.142.40.102",
      "status": "success",
      "country": "United Kingdom",
      "city": "London",
      "region": "England",
      "isp": "Google LLC",
      "org": "Google Cloud (europe-west2)",
      "latitude": 51.5123,
      "longitude": -0.0909
    },
    {
      "name": "seed.goodhello.net",
      "ip": "145.236.191.116",
      "status": "success",
      "country": "Hungary",
      "city": "Budapest",
      "region": "Budapest",
      "isp": "Magyar Telekom",
      "org": "Unknown",
      "latitude": 47.5,
      "longitude": 19.0412
    },
    {
      "name": "seed.symbionts.io",
      "ip": "191.175.43.110",
      "status": "success",
      "country": "Brazil",
      "city": "São Paulo",
      "region": "São Paulo",
      "isp": "TIM S/A",
      "org": "TIM S/A",
      "latitude": -23.5558,
      "longitude": -46.6396
    },
    {
      "name": "sn1.steemit.com",
      "ip": "121.111.11.85",
      "status": "success",
      "country": "Japan",
      "city": "Matsuyama",
      "region": "Ehime",
      "isp": "DION (KDDI CORPORATION)",
      "org": "KDDI",
      "latitude": 33.8365,
      "longitude": 132.742
    },
    {
      "name": "sn2.steemit.com",
      "ip": "16.168.97.26",
      "status": "success",
      "country": "Sweden",
      "city": "Stockholm",
      "region": "Stockholm",
      "isp": "Amazon.com",
      "org": "AWS EC2 (eu-north-1)",
      "latitude": 59.3293,
      "longitude": 18.0686
    },
    {
      "name": "sn3.steemit.com",
      "ip": "91.33.74.36",
      "status": "success",
      "country": "Germany",
      "city": "Schortens",
      "region": "Lower Saxony",
      "isp": "Deutsche Telekom AG",
      "org": "Deutsche Telekom AG",
      "latitude": 53.5353,
      "longitude": 7.9622
    },
    {
      "name": "sn4.steemit.com",
      "ip": "196.232.243.95",
      "status": "success",
      "country": "Tunisia",
      "city": "Mahdia",
      "region": "Mahdia Governorate",
      "isp": "Orange Tunisie",
      "org": "Unknown",
      "latitude": 35.5047,
      "longitude": 11.0622
    },
    {
      "name": "sn5.steemit.com",
      "ip": "154.82.100.103",
      "status": "success",
      "country": "Hong Kong",
      "city": "Hong Kong",
      "region": "Kowloon",
      "isp": "Tcloudnet",
      "org": "Tcloudnet, Inc",
      "latitude": 22.3193,
      "longitude": 114.169
    },
    {
      "name": "sn6.steemit.com",
      "ip": "49.138.186.44",
      "status": "success",
      "country": "India",
      "city": "New Delhi",
      "region": "National Capital Territory of Delhi",
      "isp": "AIRCEL",
      "org": "Aircel Limited",
      "latitude": 28.6139,
      "longitude": 77.2088
    }
  ],
  "selectedDomain": null
}